{
"type": "FeatureCollection",
"name": "SISETU_NAME",
"crs": { "type": "name", "properties": { "name": "urn:ogc:def:crs:OGC:1.3:CRS84" } },
"features": [
{ "type": "Feature", "properties": { "カテゴリ": "建物", "name": "アカデミーセンター" }, "geometry": { "type": "Point", "coordinates": [ 136.917792623262017, 35.555336104820199 ] } },
{ "type": "Feature", "properties": { "カテゴリ": "建物", "name": "森林総合教育センター(morinos)" }, "geometry": { "type": "Point", "coordinates": [ 136.919494578641405, 35.554008589225468 ] } },
{ "type": "Feature", "properties": { "カテゴリ": "建物", "name": "フォレストラボ" }, "geometry": { "type": "Point", "coordinates": [ 136.918650500927271, 35.555807714882818 ] } },
{ "type": "Feature", "properties": { "カテゴリ": "建物", "name": "ウッドラボ" }, "geometry": { "type": "Point", "coordinates": [ 136.917646220177716, 35.555688932749476 ] } },
{ "type": "Feature", "properties": { "カテゴリ": "建物", "name": "メディアラボ" }, "geometry": { "type": "Point", "coordinates": [ 136.918258366071967, 35.555683464455647 ] } },
{ "type": "Feature", "properties": { "カテゴリ": "建物", "name": "テクニカルセンターA" }, "geometry": { "type": "Point", "coordinates": [ 136.918880495172914, 35.554250781087838 ] } },
{ "type": "Feature", "properties": { "カテゴリ": "建物", "name": "テクニカルセンターB" }, "geometry": { "type": "Point", "coordinates": [ 136.918964474869966, 35.554490148929887 ] } },
{ "type": "Feature", "properties": { "カテゴリ": "その他", "name": "テクニカルグラウンド" }, "geometry": { "type": "Point", "coordinates": [ 136.918298955469254, 35.554494680362367 ] } },
{ "type": "Feature", "properties": { "カテゴリ": "建物", "name": "森の工房" }, "geometry": { "type": "Point", "coordinates": [ 136.919892364815894, 35.554096680514384 ] } },
{ "type": "Feature", "properties": { "カテゴリ": "建物", "name": "森のコテージ" }, "geometry": { "type": "Point", "coordinates": [ 136.919007069695851, 35.55491252202723 ] } },
{ "type": "Feature", "properties": { "カテゴリ": "建物", "name": "森の情報センター" }, "geometry": { "type": "Point", "coordinates": [ 136.9195666213067, 35.554178526108558 ] } },
{ "type": "Feature", "properties": { "カテゴリ": "建物", "name": "林業機械学習棟" }, "geometry": { "type": "Point", "coordinates": [ 136.917921868076604, 35.554004958346418 ] } },
{ "type": "Feature", "properties": { "カテゴリ": "建物", "name": "製材棟" }, "geometry": { "type": "Point", "coordinates": [ 136.919152257125063, 35.553387339755709 ] } },
{ "type": "Feature", "properties": { "カテゴリ": "建物", "name": "加工棟" }, "geometry": { "type": "Point", "coordinates": [ 136.919308056362695, 35.553667048448261 ] } },
{ "type": "Feature", "properties": { "カテゴリ": "建物", "name": "研修棟" }, "geometry": { "type": "Point", "coordinates": [ 136.918921657502665, 35.553772227447602 ] } },
{ "type": "Feature", "properties": { "カテゴリ": "建物", "name": "車庫" }, "geometry": { "type": "Point", "coordinates": [ 136.919352059308721, 35.555681285899944 ] } },
{ "type": "Feature", "properties": { "カテゴリ": "建物", "name": "オープンラボ" }, "geometry": { "type": "Point", "coordinates": [ 136.919451220120948, 35.553369893337134 ] } },
{ "type": "Feature", "properties": { "カテゴリ": "建物", "name": "岐阜県森林研究所" }, "geometry": { "type": "Point", "coordinates": [ 136.920154111731676, 35.553397960465638 ] } },
{ "type": "Feature", "properties": { "カテゴリ": "自力建設", "name": "森の中の四寸傘" }, "geometry": { "type": "Point", "coordinates": [ 136.921303119802985, 35.552165704819075 ] } },
{ "type": "Feature", "properties": { "カテゴリ": "自力建設", "name": "みさきのちゃや" }, "geometry": { "type": "Point", "coordinates": [ 136.918541803897227, 35.554935719079161 ] } },
{ "type": "Feature", "properties": { "カテゴリ": "自力建設", "name": "活木処" }, "geometry": { "type": "Point", "coordinates": [ 136.919631047986513, 35.553781047270256 ] } },
{ "type": "Feature", "properties": { "カテゴリ": "自力建設", "name": "風の円居" }, "geometry": { "type": "Point", "coordinates": [ 136.919168726437022, 35.554105248840017 ] } },
{ "type": "Feature", "properties": { "カテゴリ": "自力建設", "name": "switch" }, "geometry": { "type": "Point", "coordinates": [ 136.917329625625172, 35.555754544678535 ] } },
{ "type": "Feature", "properties": { "カテゴリ": "自力建設", "name": "桂の湯殿" }, "geometry": { "type": "Point", "coordinates": [ 136.918084422326956, 35.555830789012084 ] } },
{ "type": "Feature", "properties": { "カテゴリ": "自力建設", "name": "地空楼" }, "geometry": { "type": "Point", "coordinates": [ 136.917618570812039, 35.554045846428131 ] } },
{ "type": "Feature", "properties": { "カテゴリ": "自力建設", "name": "ほたるの川床" }, "geometry": { "type": "Point", "coordinates": [ 136.918656781631711, 35.555502646872029 ] } },
{ "type": "Feature", "properties": { "カテゴリ": "自力建設", "name": "こならのこみち" }, "geometry": { "type": "Point", "coordinates": [ 136.919224249151654, 35.554496996842751 ] } },
{ "type": "Feature", "properties": { "カテゴリ": "自力建設", "name": "アラカシのだんだん" }, "geometry": { "type": "Point", "coordinates": [ 136.918467131203499, 35.554975629711009 ] } },
{ "type": "Feature", "properties": { "カテゴリ": "自力建設", "name": "森のインターチェンジ" }, "geometry": { "type": "Point", "coordinates": [ 136.919127168383341, 35.554339802531338 ] } },
{ "type": "Feature", "properties": { "カテゴリ": "自力建設", "name": "木漏れ日の塔" }, "geometry": { "type": "Point", "coordinates": [ 136.916694167743628, 35.555513979309644 ] } },
{ "type": "Feature", "properties": { "カテゴリ": "自力建設", "name": "おうらいの茶の間" }, "geometry": { "type": "Point", "coordinates": [ 136.918113315440877, 35.555594292431074 ] } },
{ "type": "Feature", "properties": { "カテゴリ": "自力建設", "name": "森湊灯台" }, "geometry": { "type": "Point", "coordinates": [ 136.918214615971095, 35.55476357425939 ] } },
{ "type": "Feature", "properties": { "カテゴリ": "自力建設", "name": "SOMA’s Hut(ソマズハット)" }, "geometry": { "type": "Point", "coordinates": [ 136.923254672222299, 35.55284719443177 ] } },
{ "type": "Feature", "properties": { "カテゴリ": "自力建設", "name": "Oasis(オアシス)" }, "geometry": { "type": "Point", "coordinates": [ 136.91978373396978, 35.553986704215568 ] } },
{ "type": "Feature", "properties": { "カテゴリ": "自力建設", "name": "里山獣肉学舎" }, "geometry": { "type": "Point", "coordinates": [ 136.91905782286463, 35.556132473385809 ] } },
{ "type": "Feature", "properties": { "カテゴリ": "自力建設", "name": "森のいちだんらく" }, "geometry": { "type": "Point", "coordinates": [ 136.918166397048736, 35.555849394379692 ] } },
{ "type": "Feature", "properties": { "カテゴリ": "自力建設", "name": "Cobiki(こびき)" }, "geometry": { "type": "Point", "coordinates": [ 136.918435706747175, 35.554224969452243 ] } },
{ "type": "Feature", "properties": { "カテゴリ": "自力建設", "name": "みどりのアトリエ" }, "geometry": { "type": "Point", "coordinates": [ 136.918709805142299, 35.555509842128053 ] } },
{ "type": "Feature", "properties": { "カテゴリ": "自力建設", "name": "木立のこみち" }, "geometry": { "type": "Point", "coordinates": [ 136.917934694649944, 35.55566128838381 ] } }
]
}
